{"ast":null,"code":"var _jsxFileName = \"C:\\\\Users\\\\phlos\\\\wv-temperature-map\\\\src\\\\MapPage.js\";\nimport React from 'react';\nimport MapComponent from './MapComponent';\nimport { jsxDEV as _jsxDEV } from \"react/jsx-dev-runtime\";\nconst mockData = [{\n  lat: 38.3498,\n  lon: -81.6326,\n  name: 'Charleston',\n  temperature: 72\n}, {\n  lat: 39.6295,\n  lon: -79.9559,\n  name: 'Morgantown',\n  temperature: 68\n}, {\n  lat: 37.7782,\n  lon: -81.1855,\n  name: 'Beckley',\n  temperature: 70\n}, {\n  lat: 39.264,\n  lon: -80.239,\n  name: 'Clarksburg',\n  temperature: 65\n}, {\n  lat: 39.3417,\n  lon: -77.7311,\n  name: 'Harpers Ferry',\n  temperature: 67\n}, {\n  lat: 37.2695,\n  lon: -81.2224,\n  name: 'Bluefield',\n  temperature: 66\n}];\nconst MapPage = ({\n  setAuthenticated\n}) => {\n  return /*#__PURE__*/_jsxDEV(\"div\", {\n    children: [/*#__PURE__*/_jsxDEV(\"h1\", {\n      children: \"Recent Temperatures in West Virginia\"\n    }, void 0, false, {\n      fileName: _jsxFileName,\n      lineNumber: 16,\n      columnNumber: 7\n    }, this), /*#__PURE__*/_jsxDEV(MapComponent, {\n      temperatures: mockData\n    }, void 0, false, {\n      fileName: _jsxFileName,\n      lineNumber: 17,\n      columnNumber: 7\n    }, this), /*#__PURE__*/_jsxDEV(\"button\", {\n      onClick: () => setAuthenticated(false),\n      children: \"Logout\"\n    }, void 0, false, {\n      fileName: _jsxFileName,\n      lineNumber: 18,\n      columnNumber: 7\n    }, this)]\n  }, void 0, true, {\n    fileName: _jsxFileName,\n    lineNumber: 15,\n    columnNumber: 5\n  }, this);\n};\n_c = MapPage;\nexport default MapPage;\nvar _c;\n$RefreshReg$(_c, \"MapPage\");","map":{"version":3,"names":["React","MapComponent","jsxDEV","_jsxDEV","mockData","lat","lon","name","temperature","MapPage","setAuthenticated","children","fileName","_jsxFileName","lineNumber","columnNumber","temperatures","onClick","_c","$RefreshReg$"],"sources":["C:/Users/phlos/wv-temperature-map/src/MapPage.js"],"sourcesContent":["import React from 'react';\r\nimport MapComponent from './MapComponent';\r\n\r\nconst mockData = [\r\n  { lat: 38.3498, lon: -81.6326, name: 'Charleston', temperature: 72 },\r\n  { lat: 39.6295, lon: -79.9559, name: 'Morgantown', temperature: 68 },\r\n  { lat: 37.7782, lon: -81.1855, name: 'Beckley', temperature: 70 },\r\n  { lat: 39.264, lon: -80.239, name: 'Clarksburg', temperature: 65 },\r\n  { lat: 39.3417, lon: -77.7311, name: 'Harpers Ferry', temperature: 67 },\r\n  { lat: 37.2695, lon: -81.2224, name: 'Bluefield', temperature: 66 },\r\n];\r\n\r\nconst MapPage = ({ setAuthenticated }) => {\r\n  return (\r\n    <div>\r\n      <h1>Recent Temperatures in West Virginia</h1>\r\n      <MapComponent temperatures={mockData} />\r\n      <button onClick={() => setAuthenticated(false)}>Logout</button>\r\n    </div>\r\n  );\r\n};\r\n\r\nexport default MapPage;\r\n"],"mappings":";AAAA,OAAOA,KAAK,MAAM,OAAO;AACzB,OAAOC,YAAY,MAAM,gBAAgB;AAAC,SAAAC,MAAA,IAAAC,OAAA;AAE1C,MAAMC,QAAQ,GAAG,CACf;EAAEC,GAAG,EAAE,OAAO;EAAEC,GAAG,EAAE,CAAC,OAAO;EAAEC,IAAI,EAAE,YAAY;EAAEC,WAAW,EAAE;AAAG,CAAC,EACpE;EAAEH,GAAG,EAAE,OAAO;EAAEC,GAAG,EAAE,CAAC,OAAO;EAAEC,IAAI,EAAE,YAAY;EAAEC,WAAW,EAAE;AAAG,CAAC,EACpE;EAAEH,GAAG,EAAE,OAAO;EAAEC,GAAG,EAAE,CAAC,OAAO;EAAEC,IAAI,EAAE,SAAS;EAAEC,WAAW,EAAE;AAAG,CAAC,EACjE;EAAEH,GAAG,EAAE,MAAM;EAAEC,GAAG,EAAE,CAAC,MAAM;EAAEC,IAAI,EAAE,YAAY;EAAEC,WAAW,EAAE;AAAG,CAAC,EAClE;EAAEH,GAAG,EAAE,OAAO;EAAEC,GAAG,EAAE,CAAC,OAAO;EAAEC,IAAI,EAAE,eAAe;EAAEC,WAAW,EAAE;AAAG,CAAC,EACvE;EAAEH,GAAG,EAAE,OAAO;EAAEC,GAAG,EAAE,CAAC,OAAO;EAAEC,IAAI,EAAE,WAAW;EAAEC,WAAW,EAAE;AAAG,CAAC,CACpE;AAED,MAAMC,OAAO,GAAGA,CAAC;EAAEC;AAAiB,CAAC,KAAK;EACxC,oBACEP,OAAA;IAAAQ,QAAA,gBACER,OAAA;MAAAQ,QAAA,EAAI;IAAoC;MAAAC,QAAA,EAAAC,YAAA;MAAAC,UAAA;MAAAC,YAAA;IAAA,OAAI,CAAC,eAC7CZ,OAAA,CAACF,YAAY;MAACe,YAAY,EAAEZ;IAAS;MAAAQ,QAAA,EAAAC,YAAA;MAAAC,UAAA;MAAAC,YAAA;IAAA,OAAE,CAAC,eACxCZ,OAAA;MAAQc,OAAO,EAAEA,CAAA,KAAMP,gBAAgB,CAAC,KAAK,CAAE;MAAAC,QAAA,EAAC;IAAM;MAAAC,QAAA,EAAAC,YAAA;MAAAC,UAAA;MAAAC,YAAA;IAAA,OAAQ,CAAC;EAAA;IAAAH,QAAA,EAAAC,YAAA;IAAAC,UAAA;IAAAC,YAAA;EAAA,OAC5D,CAAC;AAEV,CAAC;AAACG,EAAA,GARIT,OAAO;AAUb,eAAeA,OAAO;AAAC,IAAAS,EAAA;AAAAC,YAAA,CAAAD,EAAA","ignoreList":[]},"metadata":{},"sourceType":"module","externalDependencies":[]}